{
"type": "FeatureCollection",
"crs": { "type": "name", "properties": { "name": "urn:ogc:def:crs:OGC:1.3:CRS84" } },
"features": [
{ "type": "Feature", "properties": { "osm_id": "3944065198", "code": 2110, "fclass": "hospital", "name": "Ber Kaver", "REMARK": "医院" }, "geometry": { "type": "Point", "coordinates": [ 40.5968497, 37.0046617 ] } },
{ "type": "Feature", "properties": { "osm_id": "1033012571", "code": 2110, "fclass": "hospital", "name": "İpsala Hastanesi", "REMARK": "医院" }, "geometry": { "type": "Point", "coordinates": [ 26.3845039, 40.9174808 ] } },
{ "type": "Feature", "properties": { "osm_id": "4526036090", "code": 2110, "fclass": "hospital", "name": "مستشفى النسائية و التوليد زاخو", "REMARK": "医院" }, "geometry": { "type": "Point", "coordinates": [ 42.6798807, 37.1479507 ] } },
{ "type": "Feature", "properties": { "osm_id": "3536715493", "code": 2110, "fclass": "hospital", "name": "Dünya Göz Hastanesi", "REMARK": "医院" }, "geometry": { "type": "Point", "coordinates": [ 28.8725826, 40.9738069 ] } },
{ "type": "Feature", "properties": { "osm_id": "4341160568", "code": 2110, "fclass": "hospital", "name": "Ataköy Ruh ve Sinir Hastalıkları Hastanesi", "REMARK": "医院" }, "geometry": { "type": "Point", "coordinates": [ 40.2313934, 40.7012589 ] } },
{ "type": "Feature", "properties": { "osm_id": "4391513389", "code": 2110, "fclass": "hospital", "name": "Beyşehir Devlet Hastanesi", "REMARK": "医院" }, "geometry": { "type": "Point", "coordinates": [ 31.722136, 37.674801 ] } },
{ "type": "Feature", "properties": { "osm_id": "4341160570", "code": 2110, "fclass": "hospital", "name": "Sürmene Devlet Hastanesi", "REMARK": "医院" }, "geometry": { "type": "Point", "coordinates": [ 40.1318839, 40.9116751 ] } },
{ "type": "Feature", "properties": { "osm_id": "4341160571", "code": 2110, "fclass": "hospital", "name": "Araklı Bayram Halil Devlet Hastanesi", "REMARK": "医院" }, "geometry": { "type": "Point", "coordinates": [ 40.0437686, 40.9167787 ] } },
{ "type": "Feature", "properties": { "osm_id": "4341160572", "code": 2110, "fclass": "hospital", "name": "SBÜ Trabzon KHB Kanuni Eğitim Araştırma Hastanesi Kaşüstü Kampüsü", "REMARK": "医院" }, "geometry": { "type": "Point", "coordinates": [ 39.8200156, 40.955422 ] } },
{ "type": "Feature", "properties": { "osm_id": "2213255021", "code": 2110, "fclass": "hospital", "name": "sağlık ocağı", "REMARK": "医院" }, "geometry": { "type": "Point", "coordinates": [ 42.4640682, 40.8870648 ] } },
{ "type": "Feature", "properties": { "osm_id": "4341160576", "code": 2110, "fclass": "hospital", "name": "Maçka Ömer Burhanoğlu Fizik Tedavi ve Rehabilitasyon Hastanesi", "REMARK": "医院" }, "geometry": { "type": "Point", "coordinates": [ 39.6111683, 40.8118114 ] } },
{ "type": "Feature", "properties": { "osm_id": "2598625541", "code": 2110, "fclass": "hospital", "name": "Yüksek İhtisas Eğitim ve Araştırma Hastanesi", "REMARK": "医院" }, "geometry": { "type": "Point", "coordinates": [ 29.1295979, 40.1857641 ] } },
{ "type": "Feature", "properties": { "osm_id": "310402871", "code": 2110, "fclass": "hospital", "name": "Güzeltepe Semt Polikliniği", "REMARK": "医院" }, "geometry": { "type": "Point", "coordinates": [ 32.847987, 39.8863381 ] } },
{ "type": "Feature", "properties": { "osm_id": "3332807000", "code": 2110, "fclass": "hospital", "name": "Safranbolu Devlet Hastanesi", "REMARK": "医院" }, "geometry": { "type": "Point", "coordinates": [ 32.6848001, 41.2528759 ] } },
{ "type": "Feature", "properties": { "osm_id": "2819327315", "code": 2110, "fclass": "hospital", "name": null, "REMARK": "医院" }, "geometry": { "type": "Point", "coordinates": [ 35.5181516, 38.7226966 ] } },
{ "type": "Feature", "properties": { "osm_id": "725898974", "code": 2110, "fclass": "hospital", "name": "Fethiye Devlet Hastanesi", "REMARK": "医院" }, "geometry": { "type": "Point", "coordinates": [ 29.119916, 36.6529988 ] } },
{ "type": "Feature", "properties": { "osm_id": "4680722089", "code": 2110, "fclass": "hospital", "name": "Mustafa Abi", "REMARK": "医院" }, "geometry": { "type": "Point", "coordinates": [ 30.783699, 36.8674202 ] } },
{ "type": "Feature", "properties": { "osm_id": "4680735389", "code": 2110, "fclass": "hospital", "name": "Evimiz", "REMARK": "医院" }, "geometry": { "type": "Point", "coordinates": [ 30.7221343, 36.8860021 ] } },
{ "type": "Feature", "properties": { "osm_id": "1407272990", "code": 2110, "fclass": "hospital", "name": null, "REMARK": "医院" }, "geometry": { "type": "Point", "coordinates": [ 28.7968486, 41.0060255 ] } },
{ "type": "Feature", "properties": { "osm_id": "3332807010", "code": 2110, "fclass": "hospital", "name": "KBÜ Devlet Hastanesi", "REMARK": "医院" }, "geometry": { "type": "Point", "coordinates": [ 32.6190535, 41.20843 ] } },
{ "type": "Feature", "properties": { "osm_id": "4738135354", "code": 2110, "fclass": "hospital", "name": null, "REMARK": "医院" }, "geometry": { "type": "Point", "coordinates": [ 42.5099192, 41.6355797 ] } },
{ "type": "Feature", "properties": { "osm_id": "4467988189", "code": 2110, "fclass": "hospital", "name": "Kıralan Sağlık Ocağı", "REMARK": "医院" }, "geometry": { "type": "Point", "coordinates": [ 29.7381367, 38.3033589 ] } },
{ "type": "Feature", "properties": { "osm_id": "3334035344", "code": 2110, "fclass": "hospital", "name": "AİBÜ İzzet Baysal Nükleer Tıp Merkezi", "REMARK": "医院" }, "geometry": { "type": "Point", "coordinates": [ 31.5652252, 40.7495794 ] } },
{ "type": "Feature", "properties": { "osm_id": "3334035345", "code": 2110, "fclass": "hospital", "name": "AİBÜ İzzet Baysal Ruh Sağlığı ve Hastalıkları Hastanesi", "REMARK": "医院" }, "geometry": { "type": "Point", "coordinates": [ 31.5658046, 40.7495468 ] } },
{ "type": "Feature", "properties": { "osm_id": "1844503746", "code": 2110, "fclass": "hospital", "name": null, "REMARK": "医院" }, "geometry": { "type": "Point", "coordinates": [ 41.3132435, 41.3557288 ] } },
{ "type": "Feature", "properties": { "osm_id": "2824451871", "code": 2110, "fclass": "hospital", "name": "Kaşkaloğlu Göz Hastanesi", "REMARK": "医院" }, "geometry": { "type": "Point", "coordinates": [ 27.1473523, 38.432016 ] } },
{ "type": "Feature", "properties": { "osm_id": "312779099", "code": 2110, "fclass": "hospital", "name": "Özel Denge İç Hastalıkları Merkezi", "REMARK": "医院" }, "geometry": { "type": "Point", "coordinates": [ 32.8664682, 39.9043285 ] } },
{ "type": "Feature", "properties": { "osm_id": "62673820", "code": 2110, "fclass": "hospital", "name": "Başkent Üniversitesi Hastanesi", "REMARK": "医院" }, "geometry": { "type": "Point", "coordinates": [ 32.8319519, 39.9254075 ] } },
{ "type": "Feature", "properties": { "osm_id": "3425577755", "code": 2110, "fclass": "hospital", "name": "դեղատուն", "REMARK": "医院" }, "geometry": { "type": "Point", "coordinates": [ 44.4419882, 40.0575565 ] } },
{ "type": "Feature", "properties": { "osm_id": "312788094", "code": 2110, "fclass": "hospital", "name": "Semt Polikliniği", "REMARK": "医院" }, "geometry": { "type": "Point", "coordinates": [ 32.8796874, 39.8932607 ] } },
{ "type": "Feature", "properties": { "osm_id": "4682973797", "code": 2110, "fclass": "hospital", "name": "KOZAKLI FİZİK TEDAVİ HASTANESİ", "REMARK": "医院" }, "geometry": { "type": "Point", "coordinates": [ 34.8593398, 39.2095939 ] } },
{ "type": "Feature", "properties": { "osm_id": "314404287", "code": 2110, "fclass": "hospital", "name": "Sağlık ocak", "REMARK": "医院" }, "geometry": { "type": "Point", "coordinates": [ 34.8309112, 38.6450829 ] } },
{ "type": "Feature", "properties": { "osm_id": "4745338539", "code": 2110, "fclass": "hospital", "name": "Pazarcık Aile Sağlığı Merkezi", "REMARK": "医院" }, "geometry": { "type": "Point", "coordinates": [ 27.932099, 41.4494855 ] } },
{ "type": "Feature", "properties": { "osm_id": "1415895339", "code": 2110, "fclass": "hospital", "name": "შუბანის საავადმყოფო (Shubani Hospital)", "REMARK": "医院" }, "geometry": { "type": "Point", "coordinates": [ 42.3770779, 41.5145846 ] } },
{ "type": "Feature", "properties": { "osm_id": "4645215613", "code": 2110, "fclass": "hospital", "name": "Karabağlar Toplum Sağlığı Merkezi", "REMARK": "医院" }, "geometry": { "type": "Point", "coordinates": [ 27.1077477, 38.3766897 ] } },
{ "type": "Feature", "properties": { "osm_id": "2247934937", "code": 2110, "fclass": "hospital", "name": "SDÜ Araştırma ve Uygulama Hastanesi", "REMARK": "医院" }, "geometry": { "type": "Point", "coordinates": [ 30.5399429, 37.8274484 ] } },
{ "type": "Feature", "properties": { "osm_id": "3431738259", "code": 2110, "fclass": "hospital", "name": "Sağlık Ocağı", "REMARK": "医院" }, "geometry": { "type": "Point", "coordinates": [ 34.4525863, 41.6264415 ] } },
{ "type": "Feature", "properties": { "osm_id": "4386796489", "code": 2110, "fclass": "hospital", "name": null, "REMARK": "医院" }, "geometry": { "type": "Point", "coordinates": [ 32.4308011, 37.876708 ] } },
{ "type": "Feature", "properties": { "osm_id": "4533798696", "code": 2110, "fclass": "hospital", "name": "مستفى العام في زاخو", "REMARK": "医院" }, "geometry": { "type": "Point", "coordinates": [ 42.6470699, 37.1456484 ] } },
{ "type": "Feature", "properties": { "osm_id": "4163440389", "code": 2110, "fclass": "hospital", "name": "Buca Sağlık Grup Başkanlığı", "REMARK": "医院" }, "geometry": { "type": "Point", "coordinates": [ 27.1550955, 38.3892644 ] } },
{ "type": "Feature", "properties": { "osm_id": "2252902520", "code": 2110, "fclass": "hospital", "name": "Gebze Şifa Tıp Merkezi", "REMARK": "医院" }, "geometry": { "type": "Point", "coordinates": [ 29.4333872, 40.7933683 ] } },
{ "type": "Feature", "properties": { "osm_id": "2277709981", "code": 2110, "fclass": "hospital", "name": null, "REMARK": "医院" }, "geometry": { "type": "Point", "coordinates": [ 27.2649421, 40.2397948 ] } },
{ "type": "Feature", "properties": { "osm_id": "4606064998", "code": 2110, "fclass": "hospital", "name": "özel kent hastanesi", "REMARK": "医院" }, "geometry": { "type": "Point", "coordinates": [ 27.051746, 38.4900161 ] } },
{ "type": "Feature", "properties": { "osm_id": "4395535089", "code": 2110, "fclass": "hospital", "name": "Ordu Üniversitesi EAH", "REMARK": "医院" }, "geometry": { "type": "Point", "coordinates": [ 37.8760091, 40.9763563 ] } },
{ "type": "Feature", "properties": { "osm_id": "3954316816", "code": 2110, "fclass": "hospital", "name": "Zübeyde Hanım Tıp Merkezi", "REMARK": "医院" }, "geometry": { "type": "Point", "coordinates": [ 27.1160902, 38.4614666 ] } },
{ "type": "Feature", "properties": { "osm_id": "2257492097", "code": 2110, "fclass": "hospital", "name": "Central Hospital", "REMARK": "医院" }, "geometry": { "type": "Point", "coordinates": [ 29.100101, 40.9658599 ] } },
{ "type": "Feature", "properties": { "osm_id": "2277731815", "code": 2110, "fclass": "hospital", "name": "Avcılar Murat Kölük Devlet Hastanesi", "REMARK": "医院" }, "geometry": { "type": "Point", "coordinates": [ 28.731592, 40.9845692 ] } },
{ "type": "Feature", "properties": { "osm_id": "2258298193", "code": 2110, "fclass": "hospital", "name": "Fatih Sultan Mehmet Tıp Merkezi", "REMARK": "医院" }, "geometry": { "type": "Point", "coordinates": [ 29.1909037, 41.0132094 ] } },
{ "type": "Feature", "properties": { "osm_id": "3955274128", "code": 2110, "fclass": "hospital", "name": "Güllü Sağlık Ocağı", "REMARK": "医院" }, "geometry": { "type": "Point", "coordinates": [ 29.0996732, 38.2697163 ] } },
{ "type": "Feature", "properties": { "osm_id": "75319365", "code": 2110, "fclass": "hospital", "name": "Çankaya Hastanesi", "REMARK": "医院" }, "geometry": { "type": "Point", "coordinates": [ 32.8633166, 39.9047963 ] } },
{ "type": "Feature", "properties": { "osm_id": "4292654673", "code": 2110, "fclass": "hospital", "name": "Medikabil Hastanesi", "REMARK": "医院" }, "geometry": { "type": "Point", "coordinates": [ 28.978875, 40.233429 ] } },
{ "type": "Feature", "properties": { "osm_id": "2351477764", "code": 2110, "fclass": "hospital", "name": "Nurlu Göz Hastanesi", "REMARK": "医院" }, "geometry": { "type": "Point", "coordinates": [ 32.5667538, 39.9595395 ] } },
{ "type": "Feature", "properties": { "osm_id": "4230329694", "code": 2110, "fclass": "hospital", "name": "Ankara Numune Hastanesi Siteler", "REMARK": "医院" }, "geometry": { "type": "Point", "coordinates": [ 32.8953316, 39.9572683 ] } },
{ "type": "Feature", "properties": { "osm_id": "4753273711", "code": 2110, "fclass": "hospital", "name": "Kütahya Ağız Ve Diş Sağlığı Merkezi", "REMARK": "医院" }, "geometry": { "type": "Point", "coordinates": [ 30.0143353, 39.4096613 ] } },
{ "type": "Feature", "properties": { "osm_id": "1853975209", "code": 2110, "fclass": "hospital", "name": "Helete Saglık Evi", "REMARK": "医院" }, "geometry": { "type": "Point", "coordinates": [ 37.4719576, 37.7920146 ] } },
{ "type": "Feature", "properties": { "osm_id": "4753376628", "code": 2110, "fclass": "hospital", "name": null, "REMARK": "医院" }, "geometry": { "type": "Point", "coordinates": [ 28.9820377, 41.0412184 ] } },
{ "type": "Feature", "properties": { "osm_id": "2260090099", "code": 2110, "fclass": "hospital", "name": "Çevre Hastanesi", "REMARK": "医院" }, "geometry": { "type": "Point", "coordinates": [ 29.0013232, 41.0672214 ] } },
{ "type": "Feature", "properties": { "osm_id": "2260090104", "code": 2110, "fclass": "hospital", "name": "Aksoy Hastanesi", "REMARK": "医院" }, "geometry": { "type": "Point", "coordinates": [ 29.0013661, 41.0673508 ] } },
{ "type": "Feature", "properties": { "osm_id": "4652751792", "code": 2110, "fclass": "hospital", "name": null, "REMARK": "医院" }, "geometry": { "type": "Point", "coordinates": [ 37.3793578, 37.0599886 ] } },
{ "type": "Feature", "properties": { "osm_id": "4753715525", "code": 2110, "fclass": "hospital", "name": "Bilge hastane", "REMARK": "医院" }, "geometry": { "type": "Point", "coordinates": [ 30.4001928, 40.7814324 ] } },
{ "type": "Feature", "properties": { "osm_id": "4471570493", "code": 2110, "fclass": "hospital", "name": null, "REMARK": "医院" }, "geometry": { "type": "Point", "coordinates": [ 42.6687506, 41.0934931 ] } },
{ "type": "Feature", "properties": { "osm_id": "2058334104", "code": 2110, "fclass": "hospital", "name": "Mustafakemalpaşa Devlet Hastanesi", "REMARK": "医院" }, "geometry": { "type": "Point", "coordinates": [ 28.4055669, 40.0339804 ] } },
{ "type": "Feature", "properties": { "osm_id": "4321515590", "code": 2110, "fclass": "hospital", "name": "Meydan Tıp Merkezi", "REMARK": "医院" }, "geometry": { "type": "Point", "coordinates": [ 30.7218214, 36.8891315 ] } },
{ "type": "Feature", "properties": { "osm_id": "1923763514", "code": 2110, "fclass": "hospital", "name": "Özel Bağcılar Tekden Hastanesi", "REMARK": "医院" }, "geometry": { "type": "Point", "coordinates": [ 28.8451016, 41.0479578 ] } },
{ "type": "Feature", "properties": { "osm_id": "4364800788", "code": 2110, "fclass": "hospital", "name": "Kürtün İlçe Devlet Hastanesi", "REMARK": "医院" }, "geometry": { "type": "Point", "coordinates": [ 39.0886797, 40.7005544 ] } },
{ "type": "Feature", "properties": { "osm_id": "83537337", "code": 2110, "fclass": "hospital", "name": "Gaziosmanpaşa Tıp Merkezi", "REMARK": "医院" }, "geometry": { "type": "Point", "coordinates": [ 32.8753683, 39.8995182 ] } },
{ "type": "Feature", "properties": { "osm_id": "4610644842", "code": 2110, "fclass": "hospital", "name": null, "REMARK": "医院" }, "geometry": { "type": "Point", "coordinates": [ 32.7230445, 39.9414901 ] } },
{ "type": "Feature", "properties": { "osm_id": "2363452816", "code": 2110, "fclass": "hospital", "name": "Belde Tıp Merkezi", "REMARK": "医院" }, "geometry": { "type": "Point", "coordinates": [ 28.9150859, 41.0571147 ] } },
{ "type": "Feature", "properties": { "osm_id": "4472240776", "code": 2110, "fclass": "hospital", "name": "Derince Devlet Hastanesi Acil Servisi", "REMARK": "医院" }, "geometry": { "type": "Point", "coordinates": [ 29.8126041, 40.760783 ] } },
{ "type": "Feature", "properties": { "osm_id": "4472240777", "code": 2110, "fclass": "hospital", "name": "SSK Hastanesi Acil Girişi", "REMARK": "医院" }, "geometry": { "type": "Point", "coordinates": [ 29.8144803, 40.7605138 ] } },
{ "type": "Feature", "properties": { "osm_id": "3598681238", "code": 2110, "fclass": "hospital", "name": "Bozkurt Devlet Hastanesi", "REMARK": "医院" }, "geometry": { "type": "Point", "coordinates": [ 34.010564, 41.9598792 ] } },
{ "type": "Feature", "properties": { "osm_id": "912269559", "code": 2110, "fclass": "hospital", "name": "Atlantis Veteriner", "REMARK": "医院" }, "geometry": { "type": "Point", "coordinates": [ 28.9303028, 41.0134396 ] } },
{ "type": "Feature", "properties": { "osm_id": "4322894374", "code": 2110, "fclass": "hospital", "name": "Gökçeada Devlet Hastanesi", "REMARK": "医院" }, "geometry": { "type": "Point", "coordinates": [ 25.9022679, 40.1976811 ] } },
{ "type": "Feature", "properties": { "osm_id": "2364932097", "code": 2110, "fclass": "hospital", "name": "Özel Sultanbeyli Tıp Merkezi", "REMARK": "医院" }, "geometry": { "type": "Point", "coordinates": [ 29.2717554, 40.9653076 ] } },
{ "type": "Feature", "properties": { "osm_id": "4612154796", "code": 2110, "fclass": "hospital", "name": "مشفى الرّازي", "REMARK": "医院" }, "geometry": { "type": "Point", "coordinates": [ 41.2225874, 37.0526749 ] } },
{ "type": "Feature", "properties": { "osm_id": "3598738653", "code": 2110, "fclass": "hospital", "name": "Abana Devlet Hastanesi", "REMARK": "医院" }, "geometry": { "type": "Point", "coordinates": [ 34.008364, 41.9767745 ] } },
{ "type": "Feature", "properties": { "osm_id": "4115229265", "code": 2110, "fclass": "hospital", "name": "112 İstasyonu", "REMARK": "医院" }, "geometry": { "type": "Point", "coordinates": [ 30.5320198, 39.7892396 ] } },
{ "type": "Feature", "properties": { "osm_id": "2367489236", "code": 2110, "fclass": "hospital", "name": "Ersoy Hastanesi", "REMARK": "医院" }, "geometry": { "type": "Point", "coordinates": [ 29.2694232, 40.9665097 ] } },
{ "type": "Feature", "properties": { "osm_id": "1375258362", "code": 2110, "fclass": "hospital", "name": "Nexweşxana Ferman", "REMARK": "医院" }, "geometry": { "type": "Point", "coordinates": [ 41.2130316, 37.0426736 ] } },
{ "type": "Feature", "properties": { "osm_id": "2520909162", "code": 2110, "fclass": "hospital", "name": "Sarayköy Devlet Hastanesi", "REMARK": "医院" }, "geometry": { "type": "Point", "coordinates": [ 28.9283968, 37.928017 ] } },
{ "type": "Feature", "properties": { "osm_id": "1375265847", "code": 2110, "fclass": "hospital", "name": "Hospital", "REMARK": "医院" }, "geometry": { "type": "Point", "coordinates": [ 42.1344937, 37.1761912 ] } },
{ "type": "Feature", "properties": { "osm_id": "83559494", "code": 2110, "fclass": "hospital", "name": "Kudret Göz Hastanesi", "REMARK": "医院" }, "geometry": { "type": "Point", "coordinates": [ 32.8650215, 39.907296 ] } },
{ "type": "Feature", "properties": { "osm_id": "355174199", "code": 2110, "fclass": "hospital", "name": null, "REMARK": "医院" }, "geometry": { "type": "Point", "coordinates": [ 29.1150102, 36.6223089 ] } },
{ "type": "Feature", "properties": { "osm_id": "4537957593", "code": 2110, "fclass": "hospital", "name": "nexoshxana shêx seid pîran", "REMARK": "医院" }, "geometry": { "type": "Point", "coordinates": [ 42.7023571, 37.1470207 ] } },
{ "type": "Feature", "properties": { "osm_id": "2279182637", "code": 2110, "fclass": "hospital", "name": null, "REMARK": "医院" }, "geometry": { "type": "Point", "coordinates": [ 27.4085518, 40.2722725 ] } },
{ "type": "Feature", "properties": { "osm_id": "2279198904", "code": 2110, "fclass": "hospital", "name": null, "REMARK": "医院" }, "geometry": { "type": "Point", "coordinates": [ 27.2432633, 40.226678 ] } },
{ "type": "Feature", "properties": { "osm_id": "2689118828", "code": 2110, "fclass": "hospital", "name": "Hastane", "REMARK": "医院" }, "geometry": { "type": "Point", "coordinates": [ 27.2682281, 37.3542553 ] } },
{ "type": "Feature", "properties": { "osm_id": "4758020208", "code": 2110, "fclass": "hospital", "name": "aaaaaa", "REMARK": "医院" }, "geometry": { "type": "Point", "coordinates": [ 32.802273, 39.9092701 ] } },
{ "type": "Feature", "properties": { "osm_id": "4294584806", "code": 2110, "fclass": "hospital", "name": "Yeni Tavas Devlet Hastanesi", "REMARK": "医院" }, "geometry": { "type": "Point", "coordinates": [ 29.070596, 37.5650674 ] } },
{ "type": "Feature", "properties": { "osm_id": "4653842591", "code": 2110, "fclass": "hospital", "name": "Suşehri Devlet Hastanesi", "REMARK": "医院" }, "geometry": { "type": "Point", "coordinates": [ 38.0822295, 40.1696363 ] } },
{ "type": "Feature", "properties": { "osm_id": "4573304995", "code": 2110, "fclass": "hospital", "name": "Keşan Verem Savaş Dispanseri", "REMARK": "医院" }, "geometry": { "type": "Point", "coordinates": [ 26.6316846, 40.8679084 ] } },
{ "type": "Feature", "properties": { "osm_id": "2691231258", "code": 2110, "fclass": "hospital", "name": "ACİL Servis", "REMARK": "医院" }, "geometry": { "type": "Point", "coordinates": [ 31.14142, 40.8393507 ] } },
{ "type": "Feature", "properties": { "osm_id": "2279410455", "code": 2110, "fclass": "hospital", "name": "Medilife Cerrahi Merkezi", "REMARK": "医院" }, "geometry": { "type": "Point", "coordinates": [ 28.6621607, 41.0062775 ] } },
{ "type": "Feature", "properties": { "osm_id": "1771777046", "code": 2110, "fclass": "hospital", "name": null, "REMARK": "医院" }, "geometry": { "type": "Point", "coordinates": [ 30.4574916, 38.0775603 ] } },
{ "type": "Feature", "properties": { "osm_id": "2279410580", "code": 2110, "fclass": "hospital", "name": "Birinci Göz Hastanesi Beylikdüzü", "REMARK": "医院" }, "geometry": { "type": "Point", "coordinates": [ 28.6428053, 41.0112282 ] } },
{ "type": "Feature", "properties": { "osm_id": "1863741203", "code": 2110, "fclass": "hospital", "name": "İbn-i Sina Tıp Merkezi", "REMARK": "医院" }, "geometry": { "type": "Point", "coordinates": [ 29.1132567, 40.9478405 ] } },
{ "type": "Feature", "properties": { "osm_id": "2279410859", "code": 2110, "fclass": "hospital", "name": "Dünya Göz Hastanesi Beykent", "REMARK": "医院" }, "geometry": { "type": "Point", "coordinates": [ 28.6274846, 41.019077 ] } },
{ "type": "Feature", "properties": { "osm_id": "2928527566", "code": 2110, "fclass": "hospital", "name": "Özel Anadolu Hastanesi", "REMARK": "医院" }, "geometry": { "type": "Point", "coordinates": [ 28.7061163, 41.0054462 ] } },
{ "type": "Feature", "properties": { "osm_id": "2928533162", "code": 2110, "fclass": "hospital", "name": "Özel Avcılar Hospital", "REMARK": "医院" }, "geometry": { "type": "Point", "coordinates": [ 28.709593, 40.9947818 ] } },
{ "type": "Feature", "properties": { "osm_id": "2928533998", "code": 2110, "fclass": "hospital", "name": "Özel Medicana Hastanesi", "REMARK": "医院" }, "geometry": { "type": "Point", "coordinates": [ 28.7211479, 40.9812753 ] } },
{ "type": "Feature", "properties": { "osm_id": "1208669182", "code": 2110, "fclass": "hospital", "name": "Iskilip Devlet Hastahanesi", "REMARK": "医院" }, "geometry": { "type": "Point", "coordinates": [ 34.4666047, 40.72753 ] } },
{ "type": "Feature", "properties": { "osm_id": "1864044013", "code": 2110, "fclass": "hospital", "name": "yenisehir gogus hastanesi", "REMARK": "医院" }, "geometry": { "type": "Point", "coordinates": [ 27.1652528, 38.4243053 ] } },
{ "type": "Feature", "properties": { "osm_id": "2807608583", "code": 2110, "fclass": "hospital", "name": "diş hekimi salih rengin özlü", "REMARK": "医院" }, "geometry": { "type": "Point", "coordinates": [ 30.2078982, 40.6978276 ] } },
{ "type": "Feature", "properties": { "osm_id": "1864045566", "code": 2110, "fclass": "hospital", "name": "ssk tepecik hastanesi", "REMARK": "医院" }, "geometry": { "type": "Point", "coordinates": [ 27.1651562, 38.4228008 ] } },
{ "type": "Feature", "properties": { "osm_id": "1392524179", "code": 2110, "fclass": "hospital", "name": "Yakutiye Araştırma Hastanesi", "REMARK": "医院" }, "geometry": { "type": "Point", "coordinates": [ 41.2398127, 39.8976812 ] } },
{ "type": "Feature", "properties": { "osm_id": "4187041307", "code": 2110, "fclass": "hospital", "name": "المشفى الوطني القديم", "REMARK": "医院" }, "geometry": { "type": "Point", "coordinates": [ 41.223096, 37.0512501 ] } },
{ "type": "Feature", "properties": { "osm_id": "4355269162", "code": 2110, "fclass": "hospital", "name": "Halıkent Sağlık Ocağı", "REMARK": "医院" }, "geometry": { "type": "Point", "coordinates": [ 30.5776782, 37.752346 ] } },
{ "type": "Feature", "properties": { "osm_id": "1864046835", "code": 2110, "fclass": "hospital", "name": "Urla Ada Hastanesi", "REMARK": "医院" }, "geometry": { "type": "Point", "coordinates": [ 26.7869433, 38.3709877 ] } },
{ "type": "Feature", "properties": { "osm_id": "2092077784", "code": 2110, "fclass": "hospital", "name": "Afşin Devlet Hastanesi", "REMARK": "医院" }, "geometry": { "type": "Point", "coordinates": [ 36.8958358, 38.2369232 ] } },
{ "type": "Feature", "properties": { "osm_id": "4659201976", "code": 2110, "fclass": "hospital", "name": "Mersin Şehir Hastanesi", "REMARK": "医院" }, "geometry": { "type": "Point", "coordinates": [ 34.6082847, 36.8545577 ] } },
{ "type": "Feature", "properties": { "osm_id": "4187041309", "code": 2110, "fclass": "hospital", "name": "الصحة المدرسية", "REMARK": "医院" }, "geometry": { "type": "Point", "coordinates": [ 41.2237807, 37.0462359 ] } },
{ "type": "Feature", "properties": { "osm_id": "4187041310", "code": 2110, "fclass": "hospital", "name": "مستوصف الخليج", "REMARK": "医院" }, "geometry": { "type": "Point", "coordinates": [ 41.2286696, 37.0364297 ] } },
{ "type": "Feature", "properties": { "osm_id": "1864491304", "code": 2110, "fclass": "hospital", "name": "Polatlı Can Hastanesi", "REMARK": "医院" }, "geometry": { "type": "Point", "coordinates": [ 32.1495959, 39.5788144 ] } },
{ "type": "Feature", "properties": { "osm_id": "3282963282", "code": 2110, "fclass": "hospital", "name": "Kasım Paşa Asker Hastanesi", "REMARK": "医院" }, "geometry": { "type": "Point", "coordinates": [ 28.964016, 41.0327835 ] } },
{ "type": "Feature", "properties": { "osm_id": "3060459766", "code": 2110, "fclass": "hospital", "name": "Turgut Özal Tıp Merkezi", "REMARK": "医院" }, "geometry": { "type": "Point", "coordinates": [ 38.4292908, 38.3379525 ] } },
{ "type": "Feature", "properties": { "osm_id": "4187079990", "code": 2110, "fclass": "hospital", "name": "مشفى السلام", "REMARK": "医院" }, "geometry": { "type": "Point", "coordinates": [ 41.2285026, 37.0499678 ] } },
{ "type": "Feature", "properties": { "osm_id": "1778854009", "code": 2110, "fclass": "hospital", "name": null, "REMARK": "医院" }, "geometry": { "type": "Point", "coordinates": [ 29.9666303, 39.4213891 ] } },
{ "type": "Feature", "properties": { "osm_id": "4583705992", "code": 2110, "fclass": "hospital", "name": null, "REMARK": "医院" }, "geometry": { "type": "Point", "coordinates": [ 32.6771178, 41.2529105 ] } },
{ "type": "Feature", "properties": { "osm_id": "2096745663", "code": 2110, "fclass": "hospital", "name": null, "REMARK": "医院" }, "geometry": { "type": "Point", "coordinates": [ 28.9755935, 40.2109163 ] } },
{ "type": "Feature", "properties": { "osm_id": "2529345686", "code": 2110, "fclass": "hospital", "name": "Emirdağ Devlet Hastanesi", "REMARK": "医院" }, "geometry": { "type": "Point", "coordinates": [ 31.1442464, 39.0058606 ] } },
{ "type": "Feature", "properties": { "osm_id": "4187080892", "code": 2110, "fclass": "hospital", "name": "مركز صحي", "REMARK": "医院" }, "geometry": { "type": "Point", "coordinates": [ 41.2347449, 37.0503194 ] } },
{ "type": "Feature", "properties": { "osm_id": "4187081390", "code": 2110, "fclass": "hospital", "name": "مشفى الكلمة", "REMARK": "医院" }, "geometry": { "type": "Point", "coordinates": [ 41.2252043, 37.0547159 ] } },
{ "type": "Feature", "properties": { "osm_id": "1226555941", "code": 2110, "fclass": "hospital", "name": null, "REMARK": "医院" }, "geometry": { "type": "Point", "coordinates": [ 28.9641454, 41.0336496 ] } },
{ "type": "Feature", "properties": { "osm_id": "1228302451", "code": 2110, "fclass": "hospital", "name": "Özel Okmeydanı Hastanesi", "REMARK": "医院" }, "geometry": { "type": "Point", "coordinates": [ 28.9601435, 41.0525784 ] } },
{ "type": "Feature", "properties": { "osm_id": "1655391607", "code": 2110, "fclass": "hospital", "name": "Kuşadası Devlet Hastanesi", "REMARK": "医院" }, "geometry": { "type": "Point", "coordinates": [ 27.2676735, 37.8789919 ] } },
{ "type": "Feature", "properties": { "osm_id": "3957226048", "code": 2110, "fclass": "hospital", "name": "children Hospital", "REMARK": "医院" }, "geometry": { "type": "Point", "coordinates": [ 29.1173637, 36.6282071 ] } },
{ "type": "Feature", "properties": { "osm_id": "4187621191", "code": 2110, "fclass": "hospital", "name": "Medicalpark", "REMARK": "医院" }, "geometry": { "type": "Point", "coordinates": [ 32.7097034, 39.966502 ] } },
{ "type": "Feature", "properties": { "osm_id": "4770074123", "code": 2110, "fclass": "hospital", "name": "Sağlık Ocağı", "REMARK": "医院" }, "geometry": { "type": "Point", "coordinates": [ 29.131813, 40.9349769 ] } },
{ "type": "Feature", "properties": { "osm_id": "1935274553", "code": 2110, "fclass": "hospital", "name": "Acıbadem Hospital", "REMARK": "医院" }, "geometry": { "type": "Point", "coordinates": [ 28.8730729, 40.9775739 ] } },
{ "type": "Feature", "properties": { "osm_id": "1119994207", "code": 2110, "fclass": "hospital", "name": null, "REMARK": "医院" }, "geometry": { "type": "Point", "coordinates": [ 31.3316825, 40.5437205 ] } },
{ "type": "Feature", "properties": { "osm_id": "4248199796", "code": 2110, "fclass": "hospital", "name": "Клініка Jineklinik", "REMARK": "医院" }, "geometry": { "type": "Point", "coordinates": [ 30.7212547, 36.8699422 ] } },
{ "type": "Feature", "properties": { "osm_id": "3893756069", "code": 2110, "fclass": "hospital", "name": "Devlet Hastanesi", "REMARK": "医院" }, "geometry": { "type": "Point", "coordinates": [ 36.2980012, 40.1191547 ] } },
{ "type": "Feature", "properties": { "osm_id": "3893806192", "code": 2110, "fclass": "hospital", "name": "Artova Eczanesi", "REMARK": "医院" }, "geometry": { "type": "Point", "coordinates": [ 36.2996053, 40.1147801 ] } },
{ "type": "Feature", "properties": { "osm_id": "4250909895", "code": 2110, "fclass": "hospital", "name": "Yenişehir Hastanesi", "REMARK": "医院" }, "geometry": { "type": "Point", "coordinates": [ 34.592023, 36.7830044 ] } },
{ "type": "Feature", "properties": { "osm_id": "1864970955", "code": 2110, "fclass": "hospital", "name": null, "REMARK": "医院" }, "geometry": { "type": "Point", "coordinates": [ 32.126087, 39.5862787 ] } },
{ "type": "Feature", "properties": { "osm_id": "1137606408", "code": 2110, "fclass": "hospital", "name": "Kartal Yavuz Selim Devlet Hastanesi", "REMARK": "医院" }, "geometry": { "type": "Point", "coordinates": [ 29.1822183, 40.8880578 ] } },
{ "type": "Feature", "properties": { "osm_id": "4704998289", "code": 2110, "fclass": "hospital", "name": "Giresun kadın doğum hastanesi", "REMARK": "医院" }, "geometry": { "type": "Point", "coordinates": [ 38.3494761, 40.9098778 ] } },
{ "type": "Feature", "properties": { "osm_id": "2446475203", "code": 2110, "fclass": "hospital", "name": "Alataş Polikliniği", "REMARK": "医院" }, "geometry": { "type": "Point", "coordinates": [ 28.6806966, 41.0347149 ] } },
{ "type": "Feature", "properties": { "osm_id": "4191717260", "code": 2110, "fclass": "hospital", "name": "Hüseyingazi Semt Polikliniği", "REMARK": "医院" }, "geometry": { "type": "Point", "coordinates": [ 32.9550957, 39.96468 ] } },
{ "type": "Feature", "properties": { "osm_id": "4706153491", "code": 2110, "fclass": "hospital", "name": "İAÜ VM MEDİCALPARK FLORYA HASTANESİ", "REMARK": "医院" }, "geometry": { "type": "Point", "coordinates": [ 28.7977234, 40.9925937 ] } },
{ "type": "Feature", "properties": { "osm_id": "122610022", "code": 2110, "fclass": "hospital", "name": "Bayındır Hastanesi", "REMARK": "医院" }, "geometry": { "type": "Point", "coordinates": [ 32.8109721, 39.9111946 ] } },
{ "type": "Feature", "properties": { "osm_id": "4583935790", "code": 2110, "fclass": "hospital", "name": "istiniya", "REMARK": "医院" }, "geometry": { "type": "Point", "coordinates": [ 29.0497205, 41.111346 ] } },
{ "type": "Feature", "properties": { "osm_id": "659666342", "code": 2110, "fclass": "hospital", "name": "Başkent Üniversitesi Hastanesi Psiko-Sosyal Rehabilitasyon Merkezi", "REMARK": "医院" }, "geometry": { "type": "Point", "coordinates": [ 32.6041322, 39.8611424 ] } },
{ "type": "Feature", "properties": { "osm_id": "1690331184", "code": 2110, "fclass": "hospital", "name": "Surp Agop Hastanesi", "REMARK": "医院" }, "geometry": { "type": "Point", "coordinates": [ 28.9858699, 41.0412563 ] } },
{ "type": "Feature", "properties": { "osm_id": "143916593", "code": 2110, "fclass": "hospital", "name": "Çankaya Doktorlar Grubu", "REMARK": "医院" }, "geometry": { "type": "Point", "coordinates": [ 32.8531463, 39.8850681 ] } },
{ "type": "Feature", "properties": { "osm_id": "4254745798", "code": 2110, "fclass": "hospital", "name": "Alibey Hastanesi", "REMARK": "医院" }, "geometry": { "type": "Point", "coordinates": [ 28.9270164, 41.0791248 ] } },
{ "type": "Feature", "properties": { "osm_id": "1692857283", "code": 2110, "fclass": "hospital", "name": "Sağlık Ocağı", "REMARK": "医院" }, "geometry": { "type": "Point", "coordinates": [ 27.3975865, 41.3204837 ] } },
{ "type": "Feature", "properties": { "osm_id": "2285776747", "code": 2110, "fclass": "hospital", "name": "sağlık ocağı", "REMARK": "医院" }, "geometry": { "type": "Point", "coordinates": [ 28.1539596, 40.2717986 ] } },
{ "type": "Feature", "properties": { "osm_id": "1868942971", "code": 2110, "fclass": "hospital", "name": "Tınaztepe Hastanesi", "REMARK": "医院" }, "geometry": { "type": "Point", "coordinates": [ 27.1936396, 38.3702792 ] } },
{ "type": "Feature", "properties": { "osm_id": "3127850463", "code": 2110, "fclass": "hospital", "name": "İstanbul Tüpbebek", "REMARK": "医院" }, "geometry": { "type": "Point", "coordinates": [ 28.9983966, 41.0554676 ] } },
{ "type": "Feature", "properties": { "osm_id": "247187683", "code": 2110, "fclass": "hospital", "name": "Gülhane Askeri Tıp Akademisi (GATA)", "REMARK": "医院" }, "geometry": { "type": "Point", "coordinates": [ 32.8516162, 39.9663408 ] } },
{ "type": "Feature", "properties": { "osm_id": "4329450289", "code": 2110, "fclass": "hospital", "name": "Bartın Devlet Hastanesi", "REMARK": "医院" }, "geometry": { "type": "Point", "coordinates": [ 32.3571197, 41.6256336 ] } },
{ "type": "Feature", "properties": { "osm_id": "247208522", "code": 2110, "fclass": "hospital", "name": "Özel Biltaş Böbrek Taşı Kırma Merkezi", "REMARK": "医院" }, "geometry": { "type": "Point", "coordinates": [ 32.8598732, 39.9093866 ] } },
{ "type": "Feature", "properties": { "osm_id": "4126890391", "code": 2110, "fclass": "hospital", "name": "აფთიაქი 24\/24", "REMARK": "医院" }, "geometry": { "type": "Point", "coordinates": [ 41.5936264, 41.5854825 ] } },
{ "type": "Feature", "properties": { "osm_id": "4052354622", "code": 2110, "fclass": "hospital", "name": "Mecidiyeköy KBB ve Vertigo Kliniği", "REMARK": "医院" }, "geometry": { "type": "Point", "coordinates": [ 28.995985, 41.06524 ] } },
{ "type": "Feature", "properties": { "osm_id": "663571868", "code": 2110, "fclass": "hospital", "name": "İlkumut Tıp Merkezi", "REMARK": "医院" }, "geometry": { "type": "Point", "coordinates": [ 32.7182717, 39.9647294 ] } },
{ "type": "Feature", "properties": { "osm_id": "3798833479", "code": 2110, "fclass": "hospital", "name": "Orçun Eczanesi", "REMARK": "医院" }, "geometry": { "type": "Point", "coordinates": [ 30.5597447, 36.6643272 ] } },
{ "type": "Feature", "properties": { "osm_id": "1789660088", "code": 2110, "fclass": "hospital", "name": "Devlet Hastanesi", "REMARK": "医院" }, "geometry": { "type": "Point", "coordinates": [ 34.8080588, 39.8159247 ] } },
{ "type": "Feature", "properties": { "osm_id": "3798856225", "code": 2110, "fclass": "hospital", "name": "Orçun Eczanesi", "REMARK": "医院" }, "geometry": { "type": "Point", "coordinates": [ 30.5597447, 36.6643272 ] } },
{ "type": "Feature", "properties": { "osm_id": "4774863725", "code": 2110, "fclass": "hospital", "name": "Asv Yaşam Hastanesi", "REMARK": "医院" }, "geometry": { "type": "Point", "coordinates": [ 30.724789, 36.8990194 ] } },
{ "type": "Feature", "properties": { "osm_id": "1999194112", "code": 2110, "fclass": "hospital", "name": null, "REMARK": "医院" }, "geometry": { "type": "Point", "coordinates": [ 27.8791416, 39.6281423 ] } },
{ "type": "Feature", "properties": { "osm_id": "1240775184", "code": 2110, "fclass": "hospital", "name": null, "REMARK": "医院" }, "geometry": { "type": "Point", "coordinates": [ 29.0190475, 41.0111084 ] } },
{ "type": "Feature", "properties": { "osm_id": "1999194113", "code": 2110, "fclass": "hospital", "name": null, "REMARK": "医院" }, "geometry": { "type": "Point", "coordinates": [ 27.8892159, 39.6187049 ] } },
{ "type": "Feature", "properties": { "osm_id": "4511218089", "code": 2110, "fclass": "hospital", "name": "Medical park", "REMARK": "医院" }, "geometry": { "type": "Point", "coordinates": [ 28.2241873, 41.0821089 ] } },
{ "type": "Feature", "properties": { "osm_id": "3191507749", "code": 2110, "fclass": "hospital", "name": null, "REMARK": "医院" }, "geometry": { "type": "Point", "coordinates": [ 35.1984262, 41.8067094 ] } },
{ "type": "Feature", "properties": { "osm_id": "1999194115", "code": 2110, "fclass": "hospital", "name": null, "REMARK": "医院" }, "geometry": { "type": "Point", "coordinates": [ 27.8797746, 39.6299602 ] } },
{ "type": "Feature", "properties": { "osm_id": "1792102391", "code": 2110, "fclass": "hospital", "name": "Şifa Hastanesi", "REMARK": "医院" }, "geometry": { "type": "Point", "coordinates": [ 41.4942881, 38.7370205 ] } },
{ "type": "Feature", "properties": { "osm_id": "4546067039", "code": 2110, "fclass": "hospital", "name": "Sen Yort", "REMARK": "医院" }, "geometry": { "type": "Point", "coordinates": [ 37.0163508, 39.7514444 ] } },
{ "type": "Feature", "properties": { "osm_id": "4511287190", "code": 2110, "fclass": "hospital", "name": "Silivri Devlet Hastanesi", "REMARK": "医院" }, "geometry": { "type": "Point", "coordinates": [ 28.2501802, 41.0779226 ] } },
{ "type": "Feature", "properties": { "osm_id": "4566879134", "code": 2110, "fclass": "hospital", "name": "Bakırköy Dr. Sadi Konuk Eğitim ve Araştırma Hastanesi Bahçelievler Polikliniği", "REMARK": "医院" }, "geometry": { "type": "Point", "coordinates": [ 28.8560596, 40.9970758 ] } },
{ "type": "Feature", "properties": { "osm_id": "4511290696", "code": 2110, "fclass": "hospital", "name": "Silivri Kolon Hastanesi", "REMARK": "医院" }, "geometry": { "type": "Point", "coordinates": [ 28.2585198, 41.0719522 ] } },
{ "type": "Feature", "properties": { "osm_id": "3904788783", "code": 2110, "fclass": "hospital", "name": "Garanri Dr. Doğan Baran Hastanesi", "REMARK": "医院" }, "geometry": { "type": "Point", "coordinates": [ 34.6456115, 37.9692205 ] } },
{ "type": "Feature", "properties": { "osm_id": "3729705449", "code": 2110, "fclass": "hospital", "name": "Anadolu hastanesi", "REMARK": "医院" }, "geometry": { "type": "Point", "coordinates": [ 30.5556965, 36.6143708 ] } },
{ "type": "Feature", "properties": { "osm_id": "264100653", "code": 2110, "fclass": "hospital", "name": "Gülkent Devlet Hastahanesi", "REMARK": "医院" }, "geometry": { "type": "Point", "coordinates": [ 30.5257544, 37.8537126 ] } },
{ "type": "Feature", "properties": { "osm_id": "4344574712", "code": 2110, "fclass": "hospital", "name": "Edirne Sultan 1. Murat Devlet Hastanesi", "REMARK": "医院" }, "geometry": { "type": "Point", "coordinates": [ 26.6049867, 41.6539477 ] } },
{ "type": "Feature", "properties": { "osm_id": "2840949902", "code": 2110, "fclass": "hospital", "name": "Gazipaşa Devlet Hastanesi", "REMARK": "医院" }, "geometry": { "type": "Point", "coordinates": [ 32.3033016, 36.2737492 ] } },
{ "type": "Feature", "properties": { "osm_id": "4127314490", "code": 2110, "fclass": "hospital", "name": "Yüksek İhtisas Hastanesi", "REMARK": "医院" }, "geometry": { "type": "Point", "coordinates": [ 32.8573611, 39.9295835 ] } },
{ "type": "Feature", "properties": { "osm_id": "4511371082", "code": 2110, "fclass": "hospital", "name": "Özel Mediplus Tıp Merkezi", "REMARK": "医院" }, "geometry": { "type": "Point", "coordinates": [ 28.6609199, 41.0177801 ] } },
{ "type": "Feature", "properties": { "osm_id": "2015866597", "code": 2110, "fclass": "hospital", "name": "Tacirler Eğitim Vakfı Sultanbeyli Devlet Hastanesi", "REMARK": "医院" }, "geometry": { "type": "Point", "coordinates": [ 29.2659432, 40.965209 ] } },
{ "type": "Feature", "properties": { "osm_id": "276522658", "code": 2110, "fclass": "hospital", "name": "Akin Polyklinigi", "REMARK": "医院" }, "geometry": { "type": "Point", "coordinates": [ 27.2638367, 37.0088963 ] } },
{ "type": "Feature", "properties": { "osm_id": "4567435304", "code": 2110, "fclass": "hospital", "name": "Özel Adana Hastanesi", "REMARK": "医院" }, "geometry": { "type": "Point", "coordinates": [ 35.3243209, 36.9938983 ] } },
{ "type": "Feature", "properties": { "osm_id": "2137074820", "code": 2110, "fclass": "hospital", "name": "sağlık ocağı", "REMARK": "医院" }, "geometry": { "type": "Point", "coordinates": [ 43.3281283, 40.8494468 ] } },
{ "type": "Feature", "properties": { "osm_id": "4267626089", "code": 2110, "fclass": "hospital", "name": "Çamlık Tıp Merkezi", "REMARK": "医院" }, "geometry": { "type": "Point", "coordinates": [ 29.1959658, 41.0139096 ] } },
{ "type": "Feature", "properties": { "osm_id": "949320214", "code": 2110, "fclass": "hospital", "name": null, "REMARK": "医院" }, "geometry": { "type": "Point", "coordinates": [ 29.06339, 40.9742061 ] } },
{ "type": "Feature", "properties": { "osm_id": "438098628", "code": 2110, "fclass": "hospital", "name": "Kaymaklı Sağlık Ocağı", "REMARK": "医院" }, "geometry": { "type": "Point", "coordinates": [ 34.7513956, 38.4635325 ] } },
{ "type": "Feature", "properties": { "osm_id": "3733510918", "code": 2110, "fclass": "hospital", "name": "PAÜ Tıp Fakültesi Acil Servis", "REMARK": "医院" }, "geometry": { "type": "Point", "coordinates": [ 29.1067181, 37.7404059 ] } },
{ "type": "Feature", "properties": { "osm_id": "4128487896", "code": 2110, "fclass": "hospital", "name": "مشفى فرمان", "REMARK": "医院" }, "geometry": { "type": "Point", "coordinates": [ 41.2130601, 37.0426267 ] } },
{ "type": "Feature", "properties": { "osm_id": "4548710990", "code": 2110, "fclass": "hospital", "name": "Kolan hospital-Bayrampaşa", "REMARK": "医院" }, "geometry": { "type": "Point", "coordinates": [ 28.9012137, 41.0329096 ] } },
{ "type": "Feature", "properties": { "osm_id": "4577912395", "code": 2110, "fclass": "hospital", "name": null, "REMARK": "医院" }, "geometry": { "type": "Point", "coordinates": [ 30.7936605, 36.9049315 ] } },
{ "type": "Feature", "properties": { "osm_id": "4588931789", "code": 2110, "fclass": "hospital", "name": "BARTIN DEVLET HASTANESİ", "REMARK": "医院" }, "geometry": { "type": "Point", "coordinates": [ 32.3525447, 41.6249078 ] } },
{ "type": "Feature", "properties": { "osm_id": "1263669897", "code": 2110, "fclass": "hospital", "name": "ORTACA DEVLET HASTANESİ", "REMARK": "医院" }, "geometry": { "type": "Point", "coordinates": [ 28.7635156, 36.836971 ] } },
{ "type": "Feature", "properties": { "osm_id": "1887217494", "code": 2110, "fclass": "hospital", "name": "Edirne Devlet Hastanesi Merkez Ünitesi", "REMARK": "医院" }, "geometry": { "type": "Point", "coordinates": [ 26.5611579, 41.6746665 ] } },
{ "type": "Feature", "properties": { "osm_id": "1887226437", "code": 2110, "fclass": "hospital", "name": "Edirne D.H. Diyaliz Ünitesi", "REMARK": "医院" }, "geometry": { "type": "Point", "coordinates": [ 26.5656964, 41.6776716 ] } },
{ "type": "Feature", "properties": { "osm_id": "4331537653", "code": 2110, "fclass": "hospital", "name": "Özel Ege Hastanesi", "REMARK": "医院" }, "geometry": { "type": "Point", "coordinates": [ 29.081663, 37.7812839 ] } },
{ "type": "Feature", "properties": { "osm_id": "3200978863", "code": 2110, "fclass": "hospital", "name": null, "REMARK": "医院" }, "geometry": { "type": "Point", "coordinates": [ 27.8763675, 39.6204374 ] } },
{ "type": "Feature", "properties": { "osm_id": "4549493636", "code": 2110, "fclass": "hospital", "name": "yaşam tıp merkezi", "REMARK": "医院" }, "geometry": { "type": "Point", "coordinates": [ 29.2134804, 41.0089741 ] } },
{ "type": "Feature", "properties": { "osm_id": "838588395", "code": 2110, "fclass": "hospital", "name": "Korgun Sağlık Ocağı", "REMARK": "医院" }, "geometry": { "type": "Point", "coordinates": [ 33.5076787, 40.7340871 ] } },
{ "type": "Feature", "properties": { "osm_id": "3200978893", "code": 2110, "fclass": "hospital", "name": null, "REMARK": "医院" }, "geometry": { "type": "Point", "coordinates": [ 27.8825996, 39.6411922 ] } },
{ "type": "Feature", "properties": { "osm_id": "4333122824", "code": 2110, "fclass": "hospital", "name": "Özel Kavaklıdere Umut Hastanesi", "REMARK": "医院" }, "geometry": { "type": "Point", "coordinates": [ 32.8635098, 39.9064721 ] } },
{ "type": "Feature", "properties": { "osm_id": "279563546", "code": 2110, "fclass": "hospital", "name": "Özel Bodrum", "REMARK": "医院" }, "geometry": { "type": "Point", "coordinates": [ 27.42893, 37.0398923 ] } },
{ "type": "Feature", "properties": { "osm_id": "3708682985", "code": 2110, "fclass": "hospital", "name": "Tavas Yaşlı Bakımevi", "REMARK": "医院" }, "geometry": { "type": "Point", "coordinates": [ 29.0615031, 37.5806854 ] } },
{ "type": "Feature", "properties": { "osm_id": "1802766031", "code": 2110, "fclass": "hospital", "name": "Naturline", "REMARK": "医院" }, "geometry": { "type": "Point", "coordinates": [ 27.1566535, 38.1011288 ] } },
{ "type": "Feature", "properties": { "osm_id": "960175124", "code": 2110, "fclass": "hospital", "name": "Ankara Universitesi Tip Fak. Kalp Merkezi", "REMARK": "医院" }, "geometry": { "type": "Point", "coordinates": [ 32.882237, 39.934893 ] } },
{ "type": "Feature", "properties": { "osm_id": "4592129193", "code": 2110, "fclass": "hospital", "name": "Dicle Üni. Çocuk Hastanesi", "REMARK": "医院" }, "geometry": { "type": "Point", "coordinates": [ 40.2583356, 37.9214896 ] } },
{ "type": "Feature", "properties": { "osm_id": "1434638984", "code": 2110, "fclass": "hospital", "name": "Saglik Kultur Spor Daire Bsk.", "REMARK": "医院" }, "geometry": { "type": "Point", "coordinates": [ 26.6405468, 38.3209527 ] } },
{ "type": "Feature", "properties": { "osm_id": "4406513697", "code": 2110, "fclass": "hospital", "name": "Ankara Cerrahi Tıp Merkezi", "REMARK": "医院" }, "geometry": { "type": "Point", "coordinates": [ 32.8263122, 39.8924972 ] } },
{ "type": "Feature", "properties": { "osm_id": "1895581290", "code": 2110, "fclass": "hospital", "name": "Fatih Sultan Mehmet Eğitim ve Araştırma Hastanesi", "REMARK": "医院" }, "geometry": { "type": "Point", "coordinates": [ 29.1042519, 40.9697263 ] } },
{ "type": "Feature", "properties": { "osm_id": "4718176889", "code": 2110, "fclass": "hospital", "name": "Acıbadem Hastanesi", "REMARK": "医院" }, "geometry": { "type": "Point", "coordinates": [ 29.0455179, 41.0193807 ] } },
{ "type": "Feature", "properties": { "osm_id": "1955866517", "code": 2110, "fclass": "hospital", "name": "Universal Hastanesi Kuşadası", "REMARK": "医院" }, "geometry": { "type": "Point", "coordinates": [ 27.2652662, 37.8663411 ] } },
{ "type": "Feature", "properties": { "osm_id": "1955866888", "code": 2110, "fclass": "hospital", "name": "Kuşadası Özel Hastanesi", "REMARK": "医院" }, "geometry": { "type": "Point", "coordinates": [ 27.2678679, 37.8600215 ] } },
{ "type": "Feature", "properties": { "osm_id": "2303490434", "code": 2110, "fclass": "hospital", "name": "Kent Hastanesi", "REMARK": "医院" }, "geometry": { "type": "Point", "coordinates": [ 38.3841468, 40.9135178 ] } },
{ "type": "Feature", "properties": { "osm_id": "2420245472", "code": 2110, "fclass": "hospital", "name": null, "REMARK": "医院" }, "geometry": { "type": "Point", "coordinates": [ 42.7919863, 41.6382016 ] } },
{ "type": "Feature", "properties": { "osm_id": "4592508771", "code": 2110, "fclass": "hospital", "name": null, "REMARK": "医院" }, "geometry": { "type": "Point", "coordinates": [ 32.7189293, 39.9446624 ] } },
{ "type": "Feature", "properties": { "osm_id": "2156611348", "code": 2110, "fclass": "hospital", "name": "Özel Lara Hospital", "REMARK": "医院" }, "geometry": { "type": "Point", "coordinates": [ 30.7941622, 36.858661 ] } },
{ "type": "Feature", "properties": { "osm_id": "970785553", "code": 2110, "fclass": "hospital", "name": null, "REMARK": "医院" }, "geometry": { "type": "Point", "coordinates": [ 35.4932213, 38.7282169 ] } },
{ "type": "Feature", "properties": { "osm_id": "4678305523", "code": 2110, "fclass": "hospital", "name": null, "REMARK": "医院" }, "geometry": { "type": "Point", "coordinates": [ 36.1495193, 36.1920513 ] } },
{ "type": "Feature", "properties": { "osm_id": "3092021920", "code": 2110, "fclass": "hospital", "name": "Devakent Hastanesi", "REMARK": "医院" }, "geometry": { "type": "Point", "coordinates": [ 36.9278058, 37.5783985 ] } },
{ "type": "Feature", "properties": { "osm_id": "4592511551", "code": 2110, "fclass": "hospital", "name": null, "REMARK": "医院" }, "geometry": { "type": "Point", "coordinates": [ 32.7186639, 39.9446434 ] } },
{ "type": "Feature", "properties": { "osm_id": "483032013", "code": 2110, "fclass": "hospital", "name": "Bodrum Devlet Hastani", "REMARK": "医院" }, "geometry": { "type": "Point", "coordinates": [ 27.4263301, 37.0456178 ] } },
{ "type": "Feature", "properties": { "osm_id": "3092021923", "code": 2110, "fclass": "hospital", "name": "Hayat Hastanesi", "REMARK": "医院" }, "geometry": { "type": "Point", "coordinates": [ 36.9287658, 37.5775797 ] } },
{ "type": "Feature", "properties": { "osm_id": "4276564890", "code": 2110, "fclass": "hospital", "name": "Viranşehir Devlet Hastanesi", "REMARK": "医院" }, "geometry": { "type": "Point", "coordinates": [ 39.7673321, 37.2288335 ] } },
{ "type": "Feature", "properties": { "osm_id": "4592511643", "code": 2110, "fclass": "hospital", "name": null, "REMARK": "医院" }, "geometry": { "type": "Point", "coordinates": [ 32.7191346, 39.9446434 ] } },
{ "type": "Feature", "properties": { "osm_id": "3503537270", "code": 2110, "fclass": "hospital", "name": "Anatolia hastenasi", "REMARK": "医院" }, "geometry": { "type": "Point", "coordinates": [ 31.0124086, 36.869727 ] } },
{ "type": "Feature", "properties": { "osm_id": "2654248823", "code": 2110, "fclass": "hospital", "name": "112", "REMARK": "医院" }, "geometry": { "type": "Point", "coordinates": [ 34.1872278, 37.4333004 ] } },
{ "type": "Feature", "properties": { "osm_id": "290837829", "code": 2110, "fclass": "hospital", "name": "Yüksek İhtisas Eğitim ve Araştırma Hastanesi", "REMARK": "医院" }, "geometry": { "type": "Point", "coordinates": [ 29.1277813, 40.1843817 ] } },
{ "type": "Feature", "properties": { "osm_id": "4276947124", "code": 2110, "fclass": "hospital", "name": "Numune Hastanesi Mamak Semt Polikliniği", "REMARK": "医院" }, "geometry": { "type": "Point", "coordinates": [ 32.9113354, 39.9285322 ] } },
{ "type": "Feature", "properties": { "osm_id": "4454461544", "code": 2110, "fclass": "hospital", "name": "Atatürk Devlet Hastanesi", "REMARK": "医院" }, "geometry": { "type": "Point", "coordinates": [ 31.1414007, 40.8400194 ] } },
{ "type": "Feature", "properties": { "osm_id": "4454461546", "code": 2110, "fclass": "hospital", "name": "Düzce SSK Hastanesi", "REMARK": "医院" }, "geometry": { "type": "Point", "coordinates": [ 31.135523, 40.8384277 ] } },
{ "type": "Feature", "properties": { "osm_id": "4592565461", "code": 2110, "fclass": "hospital", "name": null, "REMARK": "医院" }, "geometry": { "type": "Point", "coordinates": [ 32.7220287, 39.9421512 ] } },
{ "type": "Feature", "properties": { "osm_id": "2654248935", "code": 2110, "fclass": "hospital", "name": "Sağlık Ocağı", "REMARK": "医院" }, "geometry": { "type": "Point", "coordinates": [ 34.1899315, 37.4358732 ] } },
{ "type": "Feature", "properties": { "osm_id": "4454461547", "code": 2110, "fclass": "hospital", "name": "Cumayeri Devlet Hastanesi", "REMARK": "医院" }, "geometry": { "type": "Point", "coordinates": [ 30.955383, 40.8563662 ] } },
{ "type": "Feature", "properties": { "osm_id": "4454461548", "code": 2110, "fclass": "hospital", "name": "Gölyaka Devlet Hastanesi", "REMARK": "医院" }, "geometry": { "type": "Point", "coordinates": [ 30.993829, 40.7796784 ] } },
{ "type": "Feature", "properties": { "osm_id": "1740708127", "code": 2110, "fclass": "hospital", "name": "Florence Nightingale", "REMARK": "医院" }, "geometry": { "type": "Point", "coordinates": [ 29.0042388, 41.0632063 ] } },
{ "type": "Feature", "properties": { "osm_id": "4454461549", "code": 2110, "fclass": "hospital", "name": "Akçakoca Devlet Hastanesi", "REMARK": "医院" }, "geometry": { "type": "Point", "coordinates": [ 31.1157346, 41.0868326 ] } },
{ "type": "Feature", "properties": { "osm_id": "2865007523", "code": 2110, "fclass": "hospital", "name": "Muncurlu Atatürk Devlet Hastanesi", "REMARK": "医院" }, "geometry": { "type": "Point", "coordinates": [ 31.2427191, 40.8118796 ] } },
{ "type": "Feature", "properties": { "osm_id": "4454461550", "code": 2110, "fclass": "hospital", "name": "Yığılca Devlet Hastanesi", "REMARK": "医院" }, "geometry": { "type": "Point", "coordinates": [ 31.4535299, 40.9646647 ] } },
{ "type": "Feature", "properties": { "osm_id": "2311684920", "code": 2110, "fclass": "hospital", "name": "Amerikan Hastanesi", "REMARK": "医院" }, "geometry": { "type": "Point", "coordinates": [ 28.9952948, 41.0533806 ] } },
{ "type": "Feature", "properties": { "osm_id": "4571514283", "code": 2110, "fclass": "hospital", "name": "Multi Denta diş hastanesi", "REMARK": "医院" }, "geometry": { "type": "Point", "coordinates": [ 29.2091487, 41.0086713 ] } },
{ "type": "Feature", "properties": { "osm_id": "4593096992", "code": 2110, "fclass": "hospital", "name": "15 temmuz şehitleri kadın doğum ve çocuk hastanesi", "REMARK": "医院" }, "geometry": { "type": "Point", "coordinates": [ 32.5005912, 37.9108691 ] } },
{ "type": "Feature", "properties": { "osm_id": "4593109891", "code": 2110, "fclass": "hospital", "name": "Acil servis çocuk kadın acil", "REMARK": "医院" }, "geometry": { "type": "Point", "coordinates": [ 32.5009886, 37.9109339 ] } },
{ "type": "Feature", "properties": { "osm_id": "4454822889", "code": 2110, "fclass": "hospital", "name": "Özel Ege Şehir Hastanesi", "REMARK": "医院" }, "geometry": { "type": "Point", "coordinates": [ 27.1682518, 38.4242763 ] } },
{ "type": "Feature", "properties": { "osm_id": "4593325389", "code": 2110, "fclass": "hospital", "name": "Başkent", "REMARK": "医院" }, "geometry": { "type": "Point", "coordinates": [ 32.8309735, 39.9264127 ] } },
{ "type": "Feature", "properties": { "osm_id": "1293144164", "code": 2110, "fclass": "hospital", "name": "Özel Yücelen Hastanesi", "REMARK": "医院" }, "geometry": { "type": "Point", "coordinates": [ 28.7679151, 36.845037 ] } },
{ "type": "Feature", "properties": { "osm_id": "2869851326", "code": 2110, "fclass": "hospital", "name": "İstanbul Cerrahi Hastanesi", "REMARK": "医院" }, "geometry": { "type": "Point", "coordinates": [ 28.9980457, 41.0555494 ] } },
{ "type": "Feature", "properties": { "osm_id": "2869851327", "code": 2110, "fclass": "hospital", "name": "Fulya Acıbadem", "REMARK": "医院" }, "geometry": { "type": "Point", "coordinates": [ 28.9996231, 41.0556883 ] } },
{ "type": "Feature", "properties": { "osm_id": "4455074190", "code": 2110, "fclass": "hospital", "name": "Özel Gözde İzmir Hastanesi", "REMARK": "医院" }, "geometry": { "type": "Point", "coordinates": [ 27.168444, 38.4248293 ] } },
{ "type": "Feature", "properties": { "osm_id": "1814073272", "code": 2110, "fclass": "hospital", "name": "Vakfıkebir Devlet Hastanesi", "REMARK": "医院" }, "geometry": { "type": "Point", "coordinates": [ 39.2688099, 41.0474016 ] } },
{ "type": "Feature", "properties": { "osm_id": "4210791366", "code": 2110, "fclass": "hospital", "name": "Hacettepe Onkoloji Hastanesi", "REMARK": "医院" }, "geometry": { "type": "Point", "coordinates": [ 32.8669462, 39.9308773 ] } },
{ "type": "Feature", "properties": { "osm_id": "4142446089", "code": 2110, "fclass": "hospital", "name": "özel EntoKBB Cerrahi Tıp Merkezi", "REMARK": "医院" }, "geometry": { "type": "Point", "coordinates": [ 27.2054026, 38.4536783 ] } },
{ "type": "Feature", "properties": { "osm_id": "3206558583", "code": 2110, "fclass": "hospital", "name": "Devlet Hastanesi", "REMARK": "医院" }, "geometry": { "type": "Point", "coordinates": [ 34.5557865, 38.9384055 ] } },
{ "type": "Feature", "properties": { "osm_id": "2181137660", "code": 2110, "fclass": "hospital", "name": "Bayezıd Ünitesi", "REMARK": "医院" }, "geometry": { "type": "Point", "coordinates": [ 26.5432332, 41.6854927 ] } },
{ "type": "Feature", "properties": { "osm_id": "1152641973", "code": 2110, "fclass": "hospital", "name": null, "REMARK": "医院" }, "geometry": { "type": "Point", "coordinates": [ 42.879739, 41.6201724 ] } },
{ "type": "Feature", "properties": { "osm_id": "4376107598", "code": 2110, "fclass": "hospital", "name": "Հիվանդանոց", "REMARK": "医院" }, "geometry": { "type": "Point", "coordinates": [ 44.0645758, 40.121659 ] } },
{ "type": "Feature", "properties": { "osm_id": "1304981007", "code": 2110, "fclass": "hospital", "name": "Medical Park", "REMARK": "医院" }, "geometry": { "type": "Point", "coordinates": [ 30.7468263, 36.8566029 ] } },
{ "type": "Feature", "properties": { "osm_id": "1905650693", "code": 2110, "fclass": "hospital", "name": "Özel Remedy Hospital", "REMARK": "医院" }, "geometry": { "type": "Point", "coordinates": [ 29.2368748, 40.8787769 ] } },
{ "type": "Feature", "properties": { "osm_id": "875546034", "code": 2110, "fclass": "hospital", "name": null, "REMARK": "医院" }, "geometry": { "type": "Point", "coordinates": [ 26.325292, 38.3176382 ] } },
{ "type": "Feature", "properties": { "osm_id": "2589245059", "code": 2110, "fclass": "hospital", "name": "Mut Devlet Hastanesi", "REMARK": "医院" }, "geometry": { "type": "Point", "coordinates": [ 33.4329906, 36.6406136 ] } },
{ "type": "Feature", "properties": { "osm_id": "3935946185", "code": 2110, "fclass": "hospital", "name": "Ankara Ulus Devlet Hastanesi", "REMARK": "医院" }, "geometry": { "type": "Point", "coordinates": [ 32.8495355, 39.9418475 ] } },
{ "type": "Feature", "properties": { "osm_id": "3521107746", "code": 2110, "fclass": "hospital", "name": "Kaynaşlı Devlet Hastamesi", "REMARK": "医院" }, "geometry": { "type": "Point", "coordinates": [ 31.3106248, 40.7725273 ] } },
{ "type": "Feature", "properties": { "osm_id": "4721897891", "code": 2110, "fclass": "hospital", "name": "Samsun Ağız ve Diş Hastanesi", "REMARK": "医院" }, "geometry": { "type": "Point", "coordinates": [ 36.3356588, 41.2759301 ] } },
{ "type": "Feature", "properties": { "osm_id": "3100280420", "code": 2110, "fclass": "hospital", "name": "Dr. Ali ÖZGÜR", "REMARK": "医院" }, "geometry": { "type": "Point", "coordinates": [ 29.2119444, 40.1997809 ] } },
{ "type": "Feature", "properties": { "osm_id": "2431465070", "code": 2110, "fclass": "hospital", "name": null, "REMARK": "医院" }, "geometry": { "type": "Point", "coordinates": [ 30.8485205, 37.8592648 ] } },
{ "type": "Feature", "properties": { "osm_id": "3101562778", "code": 2110, "fclass": "hospital", "name": "Gelibolu Devlet Hastanesi", "REMARK": "医院" }, "geometry": { "type": "Point", "coordinates": [ 26.6749525, 40.4180797 ] } },
{ "type": "Feature", "properties": { "osm_id": "1748382498", "code": 2110, "fclass": "hospital", "name": "Ararat", "REMARK": "医院" }, "geometry": { "type": "Point", "coordinates": [ 44.690848, 39.8528598 ] } },
{ "type": "Feature", "properties": { "osm_id": "3101580029", "code": 2110, "fclass": "hospital", "name": "Askeri Hastane", "REMARK": "医院" }, "geometry": { "type": "Point", "coordinates": [ 26.6766339, 40.416286 ] } },
{ "type": "Feature", "properties": { "osm_id": "2590432285", "code": 2110, "fclass": "hospital", "name": "Sağlık Ocağı", "REMARK": "医院" }, "geometry": { "type": "Point", "coordinates": [ 33.439357, 36.6361792 ] } },
{ "type": "Feature", "properties": { "osm_id": "3999835553", "code": 2110, "fclass": "hospital", "name": "Aliya İzzet Begoviç Semt Polikliniği", "REMARK": "医院" }, "geometry": { "type": "Point", "coordinates": [ 28.9115164, 41.0564104 ] } },
{ "type": "Feature", "properties": { "osm_id": "2508030887", "code": 2110, "fclass": "hospital", "name": "Diyarbakır Askeri Hastane", "REMARK": "医院" }, "geometry": { "type": "Point", "coordinates": [ 40.2392261, 37.9205564 ] } },
{ "type": "Feature", "properties": { "osm_id": "2199341196", "code": 2110, "fclass": "hospital", "name": null, "REMARK": "医院" }, "geometry": { "type": "Point", "coordinates": [ 38.2446325, 40.9397888 ] } },
{ "type": "Feature", "properties": { "osm_id": "1749544379", "code": 2110, "fclass": "hospital", "name": "Özel Küplüce Tıp Merkez", "REMARK": "医院" }, "geometry": { "type": "Point", "coordinates": [ 29.0522183, 41.0396776 ] } },
{ "type": "Feature", "properties": { "osm_id": "1483918350", "code": 2110, "fclass": "hospital", "name": "Samsun Göğüs ve Göğüs Cerrahisi Hastanesi", "REMARK": "医院" }, "geometry": { "type": "Point", "coordinates": [ 36.320951, 41.2815369 ] } },
{ "type": "Feature", "properties": { "osm_id": "1483978245", "code": 2110, "fclass": "hospital", "name": "Baltalimanı Hastanesi", "REMARK": "医院" }, "geometry": { "type": "Point", "coordinates": [ 29.0535611, 41.0964088 ] } },
{ "type": "Feature", "properties": { "osm_id": "2201654610", "code": 2110, "fclass": "hospital", "name": "Sarıyer İsmail Akgün Devlet Hastanesi", "REMARK": "医院" }, "geometry": { "type": "Point", "coordinates": [ 29.0567711, 41.1693338 ] } },
{ "type": "Feature", "properties": { "osm_id": "2201656393", "code": 2110, "fclass": "hospital", "name": "Sarıyer İsmail Akgün Devlet Hastanesi Ek Hizmet Binası", "REMARK": "医院" }, "geometry": { "type": "Point", "coordinates": [ 29.0558645, 41.1694811 ] } },
{ "type": "Feature", "properties": { "osm_id": "4150899690", "code": 2110, "fclass": "hospital", "name": null, "REMARK": "医院" }, "geometry": { "type": "Point", "coordinates": [ 38.2461257, 38.3377603 ] } },
{ "type": "Feature", "properties": { "osm_id": "4151313489", "code": 2110, "fclass": "hospital", "name": "Gözde Kışla Hastanesi", "REMARK": "医院" }, "geometry": { "type": "Point", "coordinates": [ 38.322951, 38.3489984 ] } },
{ "type": "Feature", "properties": { "osm_id": "4337277795", "code": 2110, "fclass": "hospital", "name": "ottobock TR", "REMARK": "医院" }, "geometry": { "type": "Point", "coordinates": [ 28.9947984, 41.0702841 ] } },
{ "type": "Feature", "properties": { "osm_id": "3663980572", "code": 2110, "fclass": "hospital", "name": "Gönen Devlet Hastanesi", "REMARK": "医院" }, "geometry": { "type": "Point", "coordinates": [ 27.6762043, 40.1016966 ] } },
{ "type": "Feature", "properties": { "osm_id": "531392170", "code": 2110, "fclass": "hospital", "name": "Medical Park", "REMARK": "医院" }, "geometry": { "type": "Point", "coordinates": [ 29.0768033, 40.9904804 ] } },
{ "type": "Feature", "properties": { "osm_id": "309895232", "code": 2110, "fclass": "hospital", "name": "Doktor", "REMARK": "医院" }, "geometry": { "type": "Point", "coordinates": [ 32.1163283, 40.0608258 ] } },
{ "type": "Feature", "properties": { "osm_id": "309895235", "code": 2110, "fclass": "hospital", "name": "Fizik Tedavi Merkezi", "REMARK": "医院" }, "geometry": { "type": "Point", "coordinates": [ 32.116534, 40.0608996 ] } },
{ "type": "Feature", "properties": { "osm_id": "531393598", "code": 2110, "fclass": "hospital", "name": "Hospital Türk", "REMARK": "医院" }, "geometry": { "type": "Point", "coordinates": [ 29.022069, 41.0258767 ] } },
{ "type": "Feature", "properties": { "osm_id": "4639583589", "code": 2110, "fclass": "hospital", "name": "İstanbul Eğitim ve Araştırma Hastanesi", "REMARK": "医院" }, "geometry": { "type": "Point", "coordinates": [ 28.9378381, 41.0029051 ] } },
{ "type": "Feature", "properties": { "osm_id": "4466232989", "code": 2110, "fclass": "hospital", "name": "Çal Devlet Hastanesi", "REMARK": "医院" }, "geometry": { "type": "Point", "coordinates": [ 29.3924911, 38.0815895 ] } },
{ "type": "Feature", "properties": { "osm_id": "4315550591", "code": 2110, "fclass": "hospital", "name": "مشفى باريشا إختصاص عينية", "REMARK": "医院" }, "geometry": { "type": "Point", "coordinates": [ 36.641291, 36.161951 ] } },
{ "type": "Feature", "properties": { "osm_id": "4284101191", "code": 2110, "fclass": "hospital", "name": "Hacetepeliler Cerrahi Tıp Merkezi", "REMARK": "医院" }, "geometry": { "type": "Point", "coordinates": [ 35.3075898, 36.9870027 ] } },
{ "type": "Feature", "properties": { "osm_id": "4381941192", "code": 2110, "fclass": "hospital", "name": "Kocaeli Üniversitesi Diş Hekimliği Fakültesi", "REMARK": "医院" }, "geometry": { "type": "Point", "coordinates": [ 29.975027, 40.708118 ] } },
{ "type": "Feature", "properties": { "osm_id": "4411704689", "code": 2110, "fclass": "hospital", "name": "Özel Ege Şehir Hastanesi", "REMARK": "医院" }, "geometry": { "type": "Point", "coordinates": [ 27.1674181, 38.4240191 ] } }
]
}
